{
"type": "FeatureCollection",
"name": "HUB_Master",
"crs": { "type": "name", "properties": { "name": "urn:ogc:def:crs:OGC:1.3:CRS84" } },
"features": [
{ "type": "Feature", "properties": { "id": 1, "airline": "American", "hub": "DFW", "airport_name": "Dallas\/Fort Worth International Airport", "airline_cat": "Major", "departures": 804 }, "geometry": { "type": "Point", "coordinates": [ -97.040571, 32.898971 ] } },
{ "type": "Feature", "properties": { "id": 2, "airline": "American", "hub": "CLT", "airport_name": "Charlotte Douglas International Airport", "airline_cat": "Major", "departures": 664 }, "geometry": { "type": "Point", "coordinates": [ -80.943882, 35.220956 ] } },
{ "type": "Feature", "properties": { "id": 3, "airline": "American", "hub": "ORD", "airport_name": "O'Hare International Airport", "airline_cat": "Major", "departures": 498 }, "geometry": { "type": "Point", "coordinates": [ -87.906163, 41.97886 ] } },
{ "type": "Feature", "properties": { "id": 4, "airline": "American", "hub": "PHL", "airport_name": "Philadelphia International Airport", "airline_cat": "Major", "departures": 400 }, "geometry": { "type": "Point", "coordinates": [ -75.243206, 39.876339 ] } },
{ "type": "Feature", "properties": { "id": 5, "airline": "American", "hub": "MIA", "airport_name": "Miami International Airport", "airline_cat": "Major", "departures": 350 }, "geometry": { "type": "Point", "coordinates": [ -80.278369, 25.795039 ] } },
{ "type": "Feature", "properties": { "id": 6, "airline": "American", "hub": "PHX", "airport_name": "Phoenix Sky Harbor International Airport", "airline_cat": "Major", "departures": 299 }, "geometry": { "type": "Point", "coordinates": [ -112.008196, 33.435926 ] } },
{ "type": "Feature", "properties": { "id": 7, "airline": "American", "hub": "DCA", "airport_name": "Ronald Reagan Washington National Airport", "airline_cat": "Major", "departures": 250 }, "geometry": { "type": "Point", "coordinates": [ -77.043461, 38.853815 ] } },
{ "type": "Feature", "properties": { "id": 8, "airline": "American", "hub": "LAX", "airport_name": "Los Angeles International Airport", "airline_cat": "Major", "departures": 225 }, "geometry": { "type": "Point", "coordinates": [ -118.408294, 33.943609 ] } },
{ "type": "Feature", "properties": { "id": 9, "airline": "American", "hub": "JFK", "airport_name": "John F. Kennedy International Airport", "airline_cat": "Major", "departures": 105 }, "geometry": { "type": "Point", "coordinates": [ -73.782436, 40.644129 ] } },
{ "type": "Feature", "properties": { "id": 10, "airline": "American", "hub": "LGA", "airport_name": "LaGuardia Airport", "airline_cat": "Major", "departures": 173 }, "geometry": { "type": "Point", "coordinates": [ -73.871992, 40.774157 ] } },
{ "type": "Feature", "properties": { "id": 11, "airline": "United", "hub": "ORD", "airport_name": "O'Hare International Airport", "airline_cat": "Major", "departures": 530 }, "geometry": { "type": "Point", "coordinates": [ -87.906163, 41.97886 ] } },
{ "type": "Feature", "properties": { "id": 12, "airline": "United", "hub": "IAH", "airport_name": "George Bush Intercontinental Airport", "airline_cat": "Major", "departures": 496 }, "geometry": { "type": "Point", "coordinates": [ -95.334319, 29.986637 ] } },
{ "type": "Feature", "properties": { "id": 13, "airline": "United", "hub": "EWR", "airport_name": "Newark Liberty International Airport", "airline_cat": "Major", "departures": 397 }, "geometry": { "type": "Point", "coordinates": [ -74.177456, 40.690703 ] } },
{ "type": "Feature", "properties": { "id": 14, "airline": "United", "hub": "DEN", "airport_name": "Denver International Airport", "airline_cat": "Major", "departures": 372 }, "geometry": { "type": "Point", "coordinates": [ -104.673663, 39.858616 ] } },
{ "type": "Feature", "properties": { "id": 15, "airline": "United", "hub": "SFO", "airport_name": "San Fransisco International Airport", "airline_cat": "Major", "departures": 275 }, "geometry": { "type": "Point", "coordinates": [ -122.384362, 37.616853 ] } },
{ "type": "Feature", "properties": { "id": 16, "airline": "United", "hub": "IAD", "airport_name": "Dulles International Airport", "airline_cat": "Major", "departures": 215 }, "geometry": { "type": "Point", "coordinates": [ -77.447899, 38.953007 ] } },
{ "type": "Feature", "properties": { "id": 17, "airline": "United", "hub": "LAX", "airport_name": "Los Angeles International Airport", "airline_cat": "Major", "departures": 139 }, "geometry": { "type": "Point", "coordinates": [ -118.408294, 33.943609 ] } },
{ "type": "Feature", "properties": { "id": 18, "airline": "Delta", "hub": "ATL", "airport_name": "Hartsfield-Jackson Atlanta International Airport", "airline_cat": "Major", "departures": 1038 }, "geometry": { "type": "Point", "coordinates": [ -84.418918, 33.640328 ] } },
{ "type": "Feature", "properties": { "id": 19, "airline": "Delta", "hub": "DTW", "airport_name": "Detroit Metropolitan Wayne County Airport", "airline_cat": "Major", "departures": 455 }, "geometry": { "type": "Point", "coordinates": [ -83.356146, 42.208172 ] } },
{ "type": "Feature", "properties": { "id": 20, "airline": "Delta", "hub": "MSP", "airport_name": "Minneapolis?Saint Paul International Airport", "airline_cat": "Major", "departures": 439 }, "geometry": { "type": "Point", "coordinates": [ -93.207935, 44.881931 ] } },
{ "type": "Feature", "properties": { "id": 21, "airline": "Delta", "hub": "LGA", "airport_name": "LaGuardia Airport", "airline_cat": "Major", "departures": 274 }, "geometry": { "type": "Point", "coordinates": [ -73.871992, 40.774157 ] } },
{ "type": "Feature", "properties": { "id": 22, "airline": "Delta", "hub": "SLC", "airport_name": "Salt Lake City International Airport", "airline_cat": "Major", "departures": 256 }, "geometry": { "type": "Point", "coordinates": [ -111.980358, 40.785489 ] } },
{ "type": "Feature", "properties": { "id": 23, "airline": "Delta", "hub": "JFK", "airport_name": "John F. Kennedy International Airport", "airline_cat": "Major", "departures": 223 }, "geometry": { "type": "Point", "coordinates": [ -73.782436, 40.644129 ] } },
{ "type": "Feature", "properties": { "id": 24, "airline": "Delta", "hub": "LAX", "airport_name": "Los Angeles International Airport", "airline_cat": "Major", "departures": 175 }, "geometry": { "type": "Point", "coordinates": [ -118.408294, 33.943609 ] } },
{ "type": "Feature", "properties": { "id": 25, "airline": "Delta", "hub": "SEA", "airport_name": "Seattle-Tacoma International Airport", "airline_cat": "Major", "departures": 127 }, "geometry": { "type": "Point", "coordinates": [ -122.301505, 47.4437 ] } },
{ "type": "Feature", "properties": { "id": 26, "airline": "Delta", "hub": "BOS", "airport_name": "Boston Logan International Airport", "airline_cat": "Major", "departures": 83 }, "geometry": { "type": "Point", "coordinates": [ -71.017214, 42.366579 ] } },
{ "type": "Feature", "properties": { "id": 27, "airline": "Delta", "hub": "CVG", "airport_name": "Cincinnati\/Northern Kentucky International Airport", "airline_cat": "Major", "departures": 87 }, "geometry": { "type": "Point", "coordinates": [ -84.656161, 39.055716 ] } },
{ "type": "Feature", "properties": { "id": 28, "airline": "Southwest", "hub": "MDW", "airport_name": "Chicago Midway International Airport", "airline_cat": "MidMajor", "departures": 236 }, "geometry": { "type": "Point", "coordinates": [ -87.74166, 41.788398 ] } },
{ "type": "Feature", "properties": { "id": 29, "airline": "Southwest", "hub": "BWI", "airport_name": "Baltimore\/Washington International Thurgood Marshall Airport", "airline_cat": "MidMajor", "departures": 205 }, "geometry": { "type": "Point", "coordinates": [ -76.668804, 39.179407 ] } },
{ "type": "Feature", "properties": { "id": 30, "airline": "Southwest", "hub": "LAS", "airport_name": "McCarran International Airport ", "airline_cat": "MidMajor", "departures": 203 }, "geometry": { "type": "Point", "coordinates": [ -115.149944, 36.085451 ] } },
{ "type": "Feature", "properties": { "id": 31, "airline": "Southwest", "hub": "DEN", "airport_name": "Denver International Airport", "airline_cat": "MidMajor", "departures": 200 }, "geometry": { "type": "Point", "coordinates": [ -104.673663, 39.858616 ] } },
{ "type": "Feature", "properties": { "id": 32, "airline": "Southwest", "hub": "DAL", "airport_name": "Dallas Love Field Airport", "airline_cat": "MidMajor", "departures": 180 }, "geometry": { "type": "Point", "coordinates": [ -96.849758, 32.844191 ] } },
{ "type": "Feature", "properties": { "id": 33, "airline": "Southwest", "hub": "PHX", "airport_name": "Phoenix Sky Harbor International Airport", "airline_cat": "MidMajor", "departures": 170 }, "geometry": { "type": "Point", "coordinates": [ -112.008196, 33.435926 ] } },
{ "type": "Feature", "properties": { "id": 34, "airline": "Southwest", "hub": "HOU", "airport_name": "William P. Hobby Airport", "airline_cat": "MidMajor", "departures": 152 }, "geometry": { "type": "Point", "coordinates": [ -95.276672, 29.654386 ] } },
{ "type": "Feature", "properties": { "id": 35, "airline": "Southwest", "hub": "MCO", "airport_name": "Orlando International Airport", "airline_cat": "MidMajor", "departures": 134 }, "geometry": { "type": "Point", "coordinates": [ -81.308417, 28.43141 ] } },
{ "type": "Feature", "properties": { "id": 36, "airline": "Southwest", "hub": "ATL", "airport_name": "Hartsfield-Jackson Atlanta International Airport", "airline_cat": "MidMajor", "departures": 125 }, "geometry": { "type": "Point", "coordinates": [ -84.418918, 33.640328 ] } },
{ "type": "Feature", "properties": { "id": 37, "airline": "Southwest", "hub": "LAX", "airport_name": "Los Angeles International Airport", "airline_cat": "MidMajor", "departures": 130 }, "geometry": { "type": "Point", "coordinates": [ -118.408294, 33.943609 ] } },
{ "type": "Feature", "properties": { "id": 38, "airline": "Southwest", "hub": "OAK", "airport_name": "Oakland International Airport ", "airline_cat": "MidMajor", "departures": 120 }, "geometry": { "type": "Point", "coordinates": [ -122.213144, 37.712529 ] } },
{ "type": "Feature", "properties": { "id": 39, "airline": "JetBlue", "hub": "JFK", "airport_name": "John F. Kennedy International Airport", "airline_cat": "MidMajor" }, "geometry": { "type": "Point", "coordinates": [ -73.782436, 40.644129 ] } },
{ "type": "Feature", "properties": { "id": 40, "airline": "JetBlue", "hub": "BOS", "airport_name": "Boston Logan International Airport", "airline_cat": "MidMajor" }, "geometry": { "type": "Point", "coordinates": [ -71.017214, 42.366579 ] } },
{ "type": "Feature", "properties": { "id": 41, "airline": "JetBlue", "hub": "FLL", "airport_name": "Fort Lauderdale-Hollywood International Airport", "airline_cat": "MidMajor" }, "geometry": { "type": "Point", "coordinates": [ -80.144995, 26.071572 ] } },
{ "type": "Feature", "properties": { "id": 42, "airline": "JetBlue", "hub": "LGB", "airport_name": "Long Beach Airport", "airline_cat": "MidMajor" }, "geometry": { "type": "Point", "coordinates": [ -118.144523, 33.818272 ] } },
{ "type": "Feature", "properties": { "id": 43, "airline": "JetBlue", "hub": "MCO", "airport_name": "Orlando International Airport", "airline_cat": "MidMajor" }, "geometry": { "type": "Point", "coordinates": [ -81.308417, 28.43141 ] } },
{ "type": "Feature", "properties": { "id": 44, "airline": "Alaska", "hub": "SEA", "airport_name": "Seattle-Tacoma International Airport", "airline_cat": "MidMajor" }, "geometry": { "type": "Point", "coordinates": [ -122.301505, 47.4437 ] } },
{ "type": "Feature", "properties": { "id": 45, "airline": "Alaska", "hub": "PDX", "airport_name": "Portland International Airport", "airline_cat": "MidMajor" }, "geometry": { "type": "Point", "coordinates": [ -122.592788, 45.588823 ] } },
{ "type": "Feature", "properties": { "id": 46, "airline": "Alaska", "hub": "ANC", "airport_name": "Ted Stevens Anchorage International Airport", "airline_cat": "MidMajor" }, "geometry": { "type": "Point", "coordinates": [ -149.982228, 61.173718 ] } },
{ "type": "Feature", "properties": { "id": 47, "airline": "Alaska", "hub": "LAX", "airport_name": "Los Angeles International Airport", "airline_cat": "MidMajor" }, "geometry": { "type": "Point", "coordinates": [ -118.408294, 33.943609 ] } },
{ "type": "Feature", "properties": { "id": 48, "airline": "Alaska", "hub": "SAN", "airport_name": "San Diego International Airport ", "airline_cat": "MidMajor" }, "geometry": { "type": "Point", "coordinates": [ -117.197667, 32.732056 ] } },
{ "type": "Feature", "properties": { "id": 49, "airline": "Alaska", "hub": "SJC", "airport_name": "Mineta San Jose International Airpor", "airline_cat": "MidMajor" }, "geometry": { "type": "Point", "coordinates": [ -121.92597, 37.366681 ] } },
{ "type": "Feature", "properties": { "id": 50, "airline": "Frontier", "hub": "DEN", "airport_name": "Denver International Airport", "airline_cat": "MidMajor" }, "geometry": { "type": "Point", "coordinates": [ -104.673663, 39.858616 ] } },
{ "type": "Feature", "properties": { "id": 51, "airline": "Frontier", "hub": "CLE", "airport_name": "Cleveland Hopkins International Airport", "airline_cat": "MidMajor" }, "geometry": { "type": "Point", "coordinates": [ -81.837904, 41.410984 ] } },
{ "type": "Feature", "properties": { "id": 52, "airline": "Frontier", "hub": "CVG", "airport_name": "Cincinnati\/Northern Kentucky International Airport", "airline_cat": "MidMajor" }, "geometry": { "type": "Point", "coordinates": [ -84.656161, 39.055716 ] } },
{ "type": "Feature", "properties": { "id": 53, "airline": "Frontier", "hub": "ORD", "airport_name": "O'Hare International Airport", "airline_cat": "MidMajor" }, "geometry": { "type": "Point", "coordinates": [ -87.906163, 41.97886 ] } },
{ "type": "Feature", "properties": { "id": 54, "airline": "Frontier", "hub": "MCO", "airport_name": "Orlando International Airport", "airline_cat": "MidMajor" }, "geometry": { "type": "Point", "coordinates": [ -81.308417, 28.43141 ] } },
{ "type": "Feature", "properties": { "id": 55, "airline": "Frontier", "hub": "PHL", "airport_name": "Philadelphia International Airport", "airline_cat": "MidMajor" }, "geometry": { "type": "Point", "coordinates": [ -75.243206, 39.876339 ] } },
{ "type": "Feature", "properties": { "id": 56, "airline": "Frontier", "hub": "TTN", "airport_name": "Trenton-Mercer Airport", "airline_cat": "MidMajor" }, "geometry": { "type": "Point", "coordinates": [ -74.818273, 40.276936 ] } },
{ "type": "Feature", "properties": { "id": 57, "airline": "Virgin", "hub": "JFK", "airport_name": "John F. Kennedy International Airport", "airline_cat": "MidMajor" }, "geometry": { "type": "Point", "coordinates": [ -73.782436, 40.644129 ] } },
{ "type": "Feature", "properties": { "id": 58, "airline": "Virgin", "hub": "LAX", "airport_name": "Los Angeles International Airport", "airline_cat": "MidMajor" }, "geometry": { "type": "Point", "coordinates": [ -118.408294, 33.943609 ] } },
{ "type": "Feature", "properties": { "id": 59, "airline": "Virgin", "hub": "SFO", "airport_name": "San Fransisco International Airport", "airline_cat": "MidMajor" }, "geometry": { "type": "Point", "coordinates": [ -122.384362, 37.616853 ] } },
{ "type": "Feature", "properties": { "id": 60, "airline": "Hawaiian", "hub": "HNL", "airport_name": "Honolulu International Airport ", "airline_cat": "MidMajor" }, "geometry": { "type": "Point", "coordinates": [ -157.919726, 21.332284 ] } },
{ "type": "Feature", "properties": { "id": 61, "airline": "Hawaiian", "hub": "OGG", "airport_name": "Kahului Airport", "airline_cat": "MidMajor" }, "geometry": { "type": "Point", "coordinates": [ -156.437916, 20.893525 ] } },
{ "type": "Feature", "properties": { "id": 62, "airline": "Hawaiian", "hub": "LIH", "airport_name": "Lihue Airport", "airline_cat": "MidMajor" }, "geometry": { "type": "Point", "coordinates": [ -159.34912, 21.97814 ] } },
{ "type": "Feature", "properties": { "id": 63, "airline": "Hawaiian", "hub": "KOA", "airport_name": "Kona International Airport", "airline_cat": "MidMajor" }, "geometry": { "type": "Point", "coordinates": [ -156.041079, 19.736189 ] } },
{ "type": "Feature", "properties": { "id": 64, "airline": "Allegiant", "hub": "FLL", "airport_name": "Fort Lauderdale-Hollywood International Airport", "airline_cat": "MidMajor" }, "geometry": { "type": "Point", "coordinates": [ -80.144995, 26.071572 ] } },
{ "type": "Feature", "properties": { "id": 65, "airline": "Allegiant", "hub": "HNL", "airport_name": "Honolulu International Airport ", "airline_cat": "MidMajor" }, "geometry": { "type": "Point", "coordinates": [ -157.919726, 21.332284 ] } },
{ "type": "Feature", "properties": { "id": 66, "airline": "Allegiant", "hub": "LAS", "airport_name": "McCarran International Airport ", "airline_cat": "MidMajor" }, "geometry": { "type": "Point", "coordinates": [ -115.149944, 36.085451 ] } },
{ "type": "Feature", "properties": { "id": 67, "airline": "Allegiant", "hub": "OAK", "airport_name": "Oakland International Airport ", "airline_cat": "MidMajor" }, "geometry": { "type": "Point", "coordinates": [ -122.213144, 37.712529 ] } },
{ "type": "Feature", "properties": { "id": 68, "airline": "Allegiant", "hub": "PGD", "airport_name": "Punta Gorda Airport", "airline_cat": "MidMajor" }, "geometry": { "type": "Point", "coordinates": [ -81.997797, 26.915914 ] } },
{ "type": "Feature", "properties": { "id": 69, "airline": "Allegiant", "hub": "PIE", "airport_name": "St. Pete\/Clearwater International Airport", "airline_cat": "MidMajor" }, "geometry": { "type": "Point", "coordinates": [ -82.69193, 27.90663 ] } },
{ "type": "Feature", "properties": { "id": 70, "airline": "Allegiant", "hub": "SFB", "airport_name": "Orlando Sanford International Airport", "airline_cat": "MidMajor" }, "geometry": { "type": "Point", "coordinates": [ -81.243532, 28.775156 ] } },
{ "type": "Feature", "properties": { "id": 71, "airline": "Allegiant", "hub": "BLI", "airport_name": "Bellingham International Airport", "airline_cat": "MidMajor" }, "geometry": { "type": "Point", "coordinates": [ -122.532788, 48.795605 ] } },
{ "type": "Feature", "properties": { "id": 72, "airline": "Allegiant", "hub": "CVG", "airport_name": "Cincinnati\/Northern Kentucky International Airport", "airline_cat": "MidMajor" }, "geometry": { "type": "Point", "coordinates": [ -84.656161, 39.055716 ] } },
{ "type": "Feature", "properties": { "id": 73, "airline": "Allegiant", "hub": "AVL", "airport_name": "Asheville Regional Airport", "airline_cat": "MidMajor" }, "geometry": { "type": "Point", "coordinates": [ -82.537553, 35.434879 ] } },
{ "type": "Feature", "properties": { "id": 74, "airline": "Allegiant", "hub": "PIT", "airport_name": "Pittsburgh International Airport ", "airline_cat": "MidMajor" }, "geometry": { "type": "Point", "coordinates": [ -80.246103, 40.495599 ] } },
{ "type": "Feature", "properties": { "id": 75, "airline": "Allegiant", "hub": "LAX", "airport_name": "Los Angeles International Airport", "airline_cat": "MidMajor" }, "geometry": { "type": "Point", "coordinates": [ -118.408294, 33.943609 ] } },
{ "type": "Feature", "properties": { "id": 76, "airline": "Allegiant", "hub": "MYR", "airport_name": "Myrtle Beach International Airport ", "airline_cat": "MidMajor" }, "geometry": { "type": "Point", "coordinates": [ -78.922434, 33.680486 ] } },
{ "type": "Feature", "properties": { "id": 77, "airline": "Allegiant", "hub": "AZA", "airport_name": "Phoenix-Mesa Gateway Airport", "airline_cat": "MidMajor" }, "geometry": { "type": "Point", "coordinates": [ -111.669083, 33.307238 ] } },
{ "type": "Feature", "properties": { "id": 78, "airline": "Spirit", "hub": "FLL", "airport_name": "Fort Lauderdale-Hollywood International Airport", "airline_cat": "Regional", "departures": 52 }, "geometry": { "type": "Point", "coordinates": [ -80.144995, 26.071572 ] } },
{ "type": "Feature", "properties": { "id": 79, "airline": "Spirit", "hub": "ORD", "airport_name": "O'Hare International Airport", "airline_cat": "Regional", "departures": 30 }, "geometry": { "type": "Point", "coordinates": [ -87.906163, 41.97886 ] } },
{ "type": "Feature", "properties": { "id": 80, "airline": "Spirit", "hub": "LAS", "airport_name": "McCarran International Airport ", "airline_cat": "Regional", "departures": 28 }, "geometry": { "type": "Point", "coordinates": [ -115.149944, 36.085451 ] } },
{ "type": "Feature", "properties": { "id": 81, "airline": "Spirit", "hub": "DTW", "airport_name": "Detroit Metropolitan Wayne County Airport", "airline_cat": "Regional", "departures": 26 }, "geometry": { "type": "Point", "coordinates": [ -83.356146, 42.208172 ] } },
{ "type": "Feature", "properties": { "id": 82, "airline": "Spirit", "hub": "DFW", "airport_name": "Dallas\/Fort Worth International Airport", "airline_cat": "Regional", "departures": 24 }, "geometry": { "type": "Point", "coordinates": [ -97.040571, 32.898971 ] } },
{ "type": "Feature", "properties": { "id": 83, "airline": "Spirit", "hub": "ATL", "airport_name": "Hartsfield-Jackson Atlanta International Airport", "airline_cat": "Regional", "departures": 20 }, "geometry": { "type": "Point", "coordinates": [ -84.418918, 33.640328 ] } },
{ "type": "Feature", "properties": { "id": 84, "airline": "Spirit", "hub": "LAX", "airport_name": "Los Angeles International Airport", "airline_cat": "Regional", "departures": 17 }, "geometry": { "type": "Point", "coordinates": [ -118.408294, 33.943609 ] } },
{ "type": "Feature", "properties": { "id": 85, "airline": "Spirit", "hub": "IAH", "airport_name": "George Bush Intercontinental Airport", "airline_cat": "Regional", "departures": 17 }, "geometry": { "type": "Point", "coordinates": [ -95.334319, 29.986637 ] } },
{ "type": "Feature", "properties": { "id": 86, "airline": "Spirit", "hub": "MCO", "airport_name": "Orlando International Airport", "airline_cat": "Regional", "departures": 16 }, "geometry": { "type": "Point", "coordinates": [ -81.308417, 28.43141 ] } },
{ "type": "Feature", "properties": { "id": 87, "airline": "Spirit", "hub": "TPA", "airport_name": "Tampa International Airport", "airline_cat": "Regional", "departures": 14 }, "geometry": { "type": "Point", "coordinates": [ -82.534609, 27.980485 ] } },
{ "type": "Feature", "properties": { "id": 88, "airline": "Spirit", "hub": "MYR", "airport_name": "Myrtle Beach International Airport ", "airline_cat": "Regional" }, "geometry": { "type": "Point", "coordinates": [ -78.922434, 33.680486 ] } },
{ "type": "Feature", "properties": { "id": 89, "airline": "Spirit", "hub": "ACY", "airport_name": "Atlantic City International Airport", "airline_cat": "Regional" }, "geometry": { "type": "Point", "coordinates": [ -74.572717, 39.451129 ] } },
{ "type": "Feature", "properties": { "id": 90, "airline": "SunCountry", "hub": "MSP", "airport_name": "Minneapolis?Saint Paul International Airport", "airline_cat": "MidMajor" }, "geometry": { "type": "Point", "coordinates": [ -93.207935, 44.881931 ] } },
{ "type": "Feature", "properties": { "id": 91, "airline": "SunCountry", "hub": "DFW", "airport_name": "Dallas\/Fort Worth International Airport", "airline_cat": "MidMajor" }, "geometry": { "type": "Point", "coordinates": [ -97.040571, 32.898971 ] } },
{ "type": "Feature", "properties": { "id": 92, "airline": "SunCountry", "hub": "RSW", "airport_name": "Southwest Florida International Airport", "airline_cat": "MidMajor" }, "geometry": { "type": "Point", "coordinates": [ -81.755309, 26.52758 ] } },
{ "type": "Feature", "properties": { "id": 93, "airline": "FedEx", "hub": "MEM", "airport_name": "Memphis International Airport ", "airline_cat": "Cargo" }, "geometry": { "type": "Point", "coordinates": [ -89.98178, 35.044527 ] } },
{ "type": "Feature", "properties": { "id": 94, "airline": "FedEx", "hub": "LAX", "airport_name": "Los Angeles International Airport", "airline_cat": "Cargo" }, "geometry": { "type": "Point", "coordinates": [ -118.408294, 33.943609 ] } },
{ "type": "Feature", "properties": { "id": 95, "airline": "FedEx", "hub": "ANC", "airport_name": "Ted Stevens Anchorage International Airport", "airline_cat": "Cargo" }, "geometry": { "type": "Point", "coordinates": [ -149.982228, 61.173718 ] } },
{ "type": "Feature", "properties": { "id": 96, "airline": "FedEx", "hub": "CGN", "airport_name": "Cologne Bonn Airport", "airline_cat": "Cargo" }, "geometry": { "type": "Point", "coordinates": [ 7.122403, 50.878347 ] } },
{ "type": "Feature", "properties": { "id": 97, "airline": "FedEx", "hub": "HKG", "airport_name": "Hong Kong International Airport (HKG)", "airline_cat": "Cargo" }, "geometry": { "type": "Point", "coordinates": [ 113.935952, 22.315529 ] } },
{ "type": "Feature", "properties": { "id": 98, "airline": "FedEx", "hub": "IND", "airport_name": "Indianapolis International Airport", "airline_cat": "Cargo" }, "geometry": { "type": "Point", "coordinates": [ -86.298395, 39.714499 ] } },
{ "type": "Feature", "properties": { "id": 99, "airline": "FedEx", "hub": "AFW", "airport_name": "Fort Worth Alliance Airport", "airline_cat": "Cargo" }, "geometry": { "type": "Point", "coordinates": [ -97.312194, 32.986645 ] } },
{ "type": "Feature", "properties": { "id": 100, "airline": "FedEx", "hub": "OAK", "airport_name": "Oakland International Airport ", "airline_cat": "Cargo" }, "geometry": { "type": "Point", "coordinates": [ -122.213144, 37.712529 ] } },
{ "type": "Feature", "properties": { "id": 101, "airline": "FedEx", "hub": "EWR", "airport_name": "Newark Liberty International Airport", "airline_cat": "Cargo" }, "geometry": { "type": "Point", "coordinates": [ -74.177456, 40.690703 ] } },
{ "type": "Feature", "properties": { "id": 102, "airline": "FedEx", "hub": "MIA", "airport_name": "Miami International Airport", "airline_cat": "Cargo" }, "geometry": { "type": "Point", "coordinates": [ -80.278369, 25.795039 ] } },
{ "type": "Feature", "properties": { "id": 103, "airline": "FedEx", "hub": "GSO", "airport_name": "Piedmont Triad International Airport", "airline_cat": "Cargo" }, "geometry": { "type": "Point", "coordinates": [ -79.936275, 36.105529 ] } },
{ "type": "Feature", "properties": { "id": 104, "airline": "FedEx", "hub": "CDG", "airport_name": "Charles de Gaulle Airport", "airline_cat": "Cargo" }, "geometry": { "type": "Point", "coordinates": [ 2.547313, 49.009325 ] } },
{ "type": "Feature", "properties": { "id": 105, "airline": "FedEx", "hub": "YYZ", "airport_name": "Toronto Pearson International Airport", "airline_cat": "Cargo" }, "geometry": { "type": "Point", "coordinates": [ -79.610955, 43.681787 ] } },
{ "type": "Feature", "properties": { "id": 106, "airline": "FedEx", "hub": "CAN", "airport_name": "Guangzhou Baiyun International Airport (CAN)", "airline_cat": "Cargo" }, "geometry": { "type": "Point", "coordinates": [ 113.303162, 23.387414 ] } },
{ "type": "Feature", "properties": { "id": 107, "airline": "FedEx", "hub": "PVG", "airport_name": "Shanghai Pudong International Airport", "airline_cat": "Cargo" }, "geometry": { "type": "Point", "coordinates": [ 121.807931, 31.145185 ] } },
{ "type": "Feature", "properties": { "id": 108, "airline": "FedEx", "hub": "ITM", "airport_name": "Osaka International Airport", "airline_cat": "Cargo" }, "geometry": { "type": "Point", "coordinates": [ 135.441897, 34.791334 ] } },
{ "type": "Feature", "properties": { "id": 109, "airline": "FedEx", "hub": "STN", "airport_name": "Stansted Airport", "airline_cat": "Cargo" }, "geometry": { "type": "Point", "coordinates": [ 0.262831, 51.889529 ] } },
{ "type": "Feature", "properties": { "id": 110, "airline": "FedEx", "hub": "DXB", "airport_name": "Dubai International Airport", "airline_cat": "Cargo" }, "geometry": { "type": "Point", "coordinates": [ 55.367919, 25.259591 ] } },
{ "type": "Feature", "properties": { "id": 111, "airline": "FedEx", "hub": "SIN", "airport_name": "Changi Airport Singapore", "airline_cat": "Cargo" }, "geometry": { "type": "Point", "coordinates": [ 103.990061, 1.361127 ] } },
{ "type": "Feature", "properties": { "id": 112, "airline": "FedEx", "hub": "TSA", "airport_name": "Taipei Songshan Airport", "airline_cat": "Cargo" }, "geometry": { "type": "Point", "coordinates": [ 121.551771, 25.063432 ] } },
{ "type": "Feature", "properties": { "id": 113, "airline": "UPS", "hub": "SDF", "airport_name": "Louisville International Airport", "airline_cat": "Cargo" }, "geometry": { "type": "Point", "coordinates": [ -85.732973, 38.170107 ] } },
{ "type": "Feature", "properties": { "id": 114, "airline": "UPS", "hub": "HKG", "airport_name": "Hong Kong International Airport (HKG)", "airline_cat": "Cargo" }, "geometry": { "type": "Point", "coordinates": [ 113.935952, 22.315529 ] } },
{ "type": "Feature", "properties": { "id": 115, "airline": "UPS", "hub": "KUL", "airport_name": "KL International Airport", "airline_cat": "Cargo" }, "geometry": { "type": "Point", "coordinates": [ 101.704183, 2.754814 ] } },
{ "type": "Feature", "properties": { "id": 116, "airline": "UPS", "hub": "SVG", "airport_name": "Stavanger Airpor", "airline_cat": "Cargo" }, "geometry": { "type": "Point", "coordinates": [ 5.628581, 58.881716 ] } },
{ "type": "Feature", "properties": { "id": 117, "airline": "UPS", "hub": "SZX", "airport_name": "Shenzhen Bao'an International Airport", "airline_cat": "Cargo" }, "geometry": { "type": "Point", "coordinates": [ 113.813485, 22.623975 ] } },
{ "type": "Feature", "properties": { "id": 118, "airline": "UPS", "hub": "PHL", "airport_name": "Philadelphia International Airport", "airline_cat": "Cargo" }, "geometry": { "type": "Point", "coordinates": [ -75.243206, 39.876339 ] } },
{ "type": "Feature", "properties": { "id": 119, "airline": "UPS", "hub": "ONT", "airport_name": "LA\/Ontario International Airport ", "airline_cat": "Cargo" }, "geometry": { "type": "Point", "coordinates": [ -117.587812, 34.06045 ] } },
{ "type": "Feature", "properties": { "id": 120, "airline": "UPS", "hub": "DFW", "airport_name": "Dallas\/Fort Worth International Airport", "airline_cat": "Cargo" }, "geometry": { "type": "Point", "coordinates": [ -97.040571, 32.898971 ] } },
{ "type": "Feature", "properties": { "id": 121, "airline": "UPS", "hub": "RFD", "airport_name": "Chicago Rockford International Airport", "airline_cat": "Cargo" }, "geometry": { "type": "Point", "coordinates": [ -89.095479, 42.201962 ] } },
{ "type": "Feature", "properties": { "id": 122, "airline": "UPS", "hub": "CAE", "airport_name": "Columbia Metropolitan Airport (CAE)", "airline_cat": "Cargo" }, "geometry": { "type": "Point", "coordinates": [ -81.124882, 33.946882 ] } },
{ "type": "Feature", "properties": { "id": 123, "airline": "UPS", "hub": "MIA", "airport_name": "Miami International Airport", "airline_cat": "Cargo" }, "geometry": { "type": "Point", "coordinates": [ -80.278369, 25.795039 ] } },
{ "type": "Feature", "properties": { "id": 124, "airline": "UPS", "hub": "CGN", "airport_name": "Cologne Bonn Airport", "airline_cat": "Cargo" }, "geometry": { "type": "Point", "coordinates": [ 7.122403, 50.878347 ] } },
{ "type": "Feature", "properties": { "id": 125, "airline": "UPS", "hub": "YHM", "airport_name": "John C. Munro Hamilton International Airport", "airline_cat": "Cargo" }, "geometry": { "type": "Point", "coordinates": [ -79.926747, 43.163059 ] } },
{ "type": "Feature", "properties": { "id": 126, "airline": "Compass", "hub": "LAX", "airport_name": "Los Angeles International Airport", "airline_cat": "Regional" }, "geometry": { "type": "Point", "coordinates": [ -118.408294, 33.943609 ] } },
{ "type": "Feature", "properties": { "id": 127, "airline": "Compass", "hub": "SEA", "airport_name": "Seattle-Tacoma International Airport", "airline_cat": "Regional" }, "geometry": { "type": "Point", "coordinates": [ -122.301505, 47.4437 ] } },
{ "type": "Feature", "properties": { "id": 128, "airline": "Compass", "hub": "MSP", "airport_name": "Minneapolis?Saint Paul International Airport", "airline_cat": "Regional" }, "geometry": { "type": "Point", "coordinates": [ -93.207935, 44.881931 ] } },
{ "type": "Feature", "properties": { "id": 129, "airline": "Endeavor", "hub": "DTW", "airport_name": "Detroit Metropolitan Wayne County Airport", "airline_cat": "Regional" }, "geometry": { "type": "Point", "coordinates": [ -83.356146, 42.208172 ] } },
{ "type": "Feature", "properties": { "id": 130, "airline": "Endeavor", "hub": "JFK", "airport_name": "John F. Kennedy International Airport", "airline_cat": "Regional" }, "geometry": { "type": "Point", "coordinates": [ -73.782436, 40.644129 ] } },
{ "type": "Feature", "properties": { "id": 131, "airline": "Endeavor", "hub": "LGA", "airport_name": "LaGuardia Airport", "airline_cat": "Regional" }, "geometry": { "type": "Point", "coordinates": [ -73.871992, 40.774157 ] } },
{ "type": "Feature", "properties": { "id": 132, "airline": "Endeavor", "hub": "MSP", "airport_name": "Minneapolis?Saint Paul International Airport", "airline_cat": "Regional" }, "geometry": { "type": "Point", "coordinates": [ -93.207935, 44.881931 ] } },
{ "type": "Feature", "properties": { "id": 133, "airline": "ExpressJet", "hub": "DTW", "airport_name": "Detroit Metropolitan Wayne County Airport", "airline_cat": "Regional" }, "geometry": { "type": "Point", "coordinates": [ -83.356146, 42.208172 ] } },
{ "type": "Feature", "properties": { "id": 134, "airline": "ExpressJet", "hub": "DFW", "airport_name": "Dallas\/Fort Worth International Airport", "airline_cat": "Regional" }, "geometry": { "type": "Point", "coordinates": [ -97.040571, 32.898971 ] } },
{ "type": "Feature", "properties": { "id": 135, "airline": "ExpressJet", "hub": "EWR", "airport_name": "Newark Liberty International Airport", "airline_cat": "Regional" }, "geometry": { "type": "Point", "coordinates": [ -74.177456, 40.690703 ] } },
{ "type": "Feature", "properties": { "id": 136, "airline": "ExpressJet", "hub": "IAH", "airport_name": "George Bush Intercontinental Airport", "airline_cat": "Regional" }, "geometry": { "type": "Point", "coordinates": [ -95.334319, 29.986637 ] } },
{ "type": "Feature", "properties": { "id": 137, "airline": "ExpressJet", "hub": "ORD", "airport_name": "O'Hare International Airport", "airline_cat": "Regional" }, "geometry": { "type": "Point", "coordinates": [ -87.906163, 41.97886 ] } },
{ "type": "Feature", "properties": { "id": 138, "airline": "ExpressJet", "hub": "ATL", "airport_name": "Hartsfield-Jackson Atlanta International Airport", "airline_cat": "Regional" }, "geometry": { "type": "Point", "coordinates": [ -84.418918, 33.640328 ] } },
{ "type": "Feature", "properties": { "id": 139, "airline": "ExpressJet", "hub": "CLE", "airport_name": "Cleveland Hopkins International Airport", "airline_cat": "Regional" }, "geometry": { "type": "Point", "coordinates": [ -81.837904, 41.410984 ] } },
{ "type": "Feature", "properties": { "id": 140, "airline": "PSA", "hub": "DAY", "airport_name": "Dayton International Airport", "airline_cat": "Regional" }, "geometry": { "type": "Point", "coordinates": [ -84.221379, 39.898599 ] } },
{ "type": "Feature", "properties": { "id": 141, "airline": "PSA", "hub": "TYS", "airport_name": "McGhee Tyson Airport", "airline_cat": "Regional" }, "geometry": { "type": "Point", "coordinates": [ -83.989717, 35.80549 ] } },
{ "type": "Feature", "properties": { "id": 142, "airline": "PSA", "hub": "CLT", "airport_name": "Charlotte Douglas International Airport", "airline_cat": "Regional" }, "geometry": { "type": "Point", "coordinates": [ -80.943882, 35.220956 ] } },
{ "type": "Feature", "properties": { "id": 143, "airline": "PSA", "hub": "CVG", "airport_name": "Cincinnati\/Northern Kentucky International Airport", "airline_cat": "Regional" }, "geometry": { "type": "Point", "coordinates": [ -84.656161, 39.055716 ] } },
{ "type": "Feature", "properties": { "id": 144, "airline": "PSA", "hub": "PHL", "airport_name": "Philadelphia International Airport", "airline_cat": "Regional" }, "geometry": { "type": "Point", "coordinates": [ -75.243206, 39.876339 ] } },
{ "type": "Feature", "properties": { "id": 145, "airline": "PSA", "hub": "DCA", "airport_name": "Ronald Reagan Washington National Airport", "airline_cat": "Regional" }, "geometry": { "type": "Point", "coordinates": [ -77.043461, 38.853815 ] } },
{ "type": "Feature", "properties": { "id": 146, "airline": "TransStates", "hub": "RDU", "airport_name": "Raleigh-Durham International Airport", "airline_cat": "Regional" }, "geometry": { "type": "Point", "coordinates": [ -78.788558, 35.875452 ] } },
{ "type": "Feature", "properties": { "id": 147, "airline": "TransStates", "hub": "IAD", "airport_name": "Dulles International Airport", "airline_cat": "Regional" }, "geometry": { "type": "Point", "coordinates": [ -77.447899, 38.953007 ] } },
{ "type": "Feature", "properties": { "id": 148, "airline": "TransStates", "hub": "STL", "airport_name": "Lambert-St. Louis Int'l Airport", "airline_cat": "Regional" }, "geometry": { "type": "Point", "coordinates": [ -90.366328, 38.74212 ] } },
{ "type": "Feature", "properties": { "id": 149, "airline": "TransStates", "hub": "ORD", "airport_name": "O'Hare International Airport", "airline_cat": "Regional" }, "geometry": { "type": "Point", "coordinates": [ -87.906163, 41.97886 ] } },
{ "type": "Feature", "properties": { "id": 150, "airline": "TransStates", "hub": "DEN", "airport_name": "Denver International Airport", "airline_cat": "Regional" }, "geometry": { "type": "Point", "coordinates": [ -104.673663, 39.858616 ] } },
{ "type": "Feature", "properties": { "id": 151, "airline": "TransStates", "hub": "LGA", "airport_name": "LaGuardia Airport", "airline_cat": "Regional" }, "geometry": { "type": "Point", "coordinates": [ -73.871992, 40.774157 ] } },
{ "type": "Feature", "properties": { "id": 152, "airline": "TransStates", "hub": "CLE", "airport_name": "Cleveland Hopkins International Airport", "airline_cat": "Regional" }, "geometry": { "type": "Point", "coordinates": [ -81.837904, 41.410984 ] } },
{ "type": "Feature", "properties": { "id": 153, "airline": "TransStates", "hub": "JFK", "airport_name": "John F. Kennedy International Airport", "airline_cat": "Regional" }, "geometry": { "type": "Point", "coordinates": [ -73.782436, 40.644129 ] } },
{ "type": "Feature", "properties": { "id": 154, "airline": "AirWisco", "hub": "ORF", "airport_name": "Norfolk International Airport", "airline_cat": "Regional" }, "geometry": { "type": "Point", "coordinates": [ -76.206411, 36.898777 ] } },
{ "type": "Feature", "properties": { "id": 155, "airline": "AirWisco", "hub": "PHL", "airport_name": "Philadelphia International Airport", "airline_cat": "Regional" }, "geometry": { "type": "Point", "coordinates": [ -75.243206, 39.876339 ] } },
{ "type": "Feature", "properties": { "id": 156, "airline": "AirWisco", "hub": "DCA", "airport_name": "Ronald Reagan Washington National Airport", "airline_cat": "Regional" }, "geometry": { "type": "Point", "coordinates": [ -77.043461, 38.853815 ] } },
{ "type": "Feature", "properties": { "id": 157, "airline": "AirWisco", "hub": "LGA", "airport_name": "LaGuardia Airport", "airline_cat": "Regional" }, "geometry": { "type": "Point", "coordinates": [ -73.871992, 40.774157 ] } },
{ "type": "Feature", "properties": { "id": 158, "airline": "Envoy", "hub": "ORD", "airport_name": "O'Hare International Airport", "airline_cat": "Regional" }, "geometry": { "type": "Point", "coordinates": [ -87.906163, 41.97886 ] } },
{ "type": "Feature", "properties": { "id": 159, "airline": "Envoy", "hub": "DFW", "airport_name": "Dallas\/Fort Worth International Airport", "airline_cat": "Regional" }, "geometry": { "type": "Point", "coordinates": [ -97.040571, 32.898971 ] } },
{ "type": "Feature", "properties": { "id": 160, "airline": "Envoy", "hub": "MIA", "airport_name": "Miami International Airport", "airline_cat": "Regional" }, "geometry": { "type": "Point", "coordinates": [ -80.278369, 25.795039 ] } },
{ "type": "Feature", "properties": { "id": 161, "airline": "Envoy", "hub": "JFK", "airport_name": "John F. Kennedy International Airport", "airline_cat": "Regional" }, "geometry": { "type": "Point", "coordinates": [ -73.782436, 40.644129 ] } },
{ "type": "Feature", "properties": { "id": 162, "airline": "Envoy", "hub": "LGA", "airport_name": "LaGuardia Airport", "airline_cat": "Regional" }, "geometry": { "type": "Point", "coordinates": [ -73.871992, 40.774157 ] } },
{ "type": "Feature", "properties": { "id": 163, "airline": "Envoy", "hub": "LAX", "airport_name": "Los Angeles International Airport", "airline_cat": "Regional" }, "geometry": { "type": "Point", "coordinates": [ -118.408294, 33.943609 ] } },
{ "type": "Feature", "properties": { "id": 164, "airline": "GoJet", "hub": "ORD", "airport_name": "O'Hare International Airport", "airline_cat": "Regional" }, "geometry": { "type": "Point", "coordinates": [ -87.906163, 41.97886 ] } },
{ "type": "Feature", "properties": { "id": 165, "airline": "GoJet", "hub": "RDU", "airport_name": "Raleigh-Durham International Airport", "airline_cat": "Regional" }, "geometry": { "type": "Point", "coordinates": [ -78.788558, 35.875452 ] } },
{ "type": "Feature", "properties": { "id": 166, "airline": "GoJet", "hub": "STL", "airport_name": "Lambert-St. Louis Int'l Airport", "airline_cat": "Regional" }, "geometry": { "type": "Point", "coordinates": [ -90.366328, 38.74212 ] } },
{ "type": "Feature", "properties": { "id": 167, "airline": "GoJet", "hub": "DEN", "airport_name": "Denver International Airport", "airline_cat": "Regional" }, "geometry": { "type": "Point", "coordinates": [ -104.673663, 39.858616 ] } },
{ "type": "Feature", "properties": { "id": 168, "airline": "GoJet", "hub": "CVG", "airport_name": "Cincinnati\/Northern Kentucky International Airport", "airline_cat": "Regional" }, "geometry": { "type": "Point", "coordinates": [ -84.656161, 39.055716 ] } },
{ "type": "Feature", "properties": { "id": 169, "airline": "GoJet", "hub": "DTW", "airport_name": "Detroit Metropolitan Wayne County Airport", "airline_cat": "Regional" }, "geometry": { "type": "Point", "coordinates": [ -83.356146, 42.208172 ] } },
{ "type": "Feature", "properties": { "id": 170, "airline": "GoJet", "hub": "LGA", "airport_name": "LaGuardia Airport", "airline_cat": "Regional" }, "geometry": { "type": "Point", "coordinates": [ -73.871992, 40.774157 ] } },
{ "type": "Feature", "properties": { "id": 171, "airline": "GoJet", "hub": "JFK", "airport_name": "John F. Kennedy International Airport", "airline_cat": "Regional" }, "geometry": { "type": "Point", "coordinates": [ -73.782436, 40.644129 ] } },
{ "type": "Feature", "properties": { "id": 172, "airline": "Horizon", "hub": "ANC", "airport_name": "Ted Stevens Anchorage International Airport", "airline_cat": "Regional" }, "geometry": { "type": "Point", "coordinates": [ -149.982228, 61.173718 ] } },
{ "type": "Feature", "properties": { "id": 173, "airline": "Horizon", "hub": "BOI", "airport_name": "Boise Airport", "airline_cat": "Regional" }, "geometry": { "type": "Point", "coordinates": [ -116.222412, 43.569202 ] } },
{ "type": "Feature", "properties": { "id": 174, "airline": "Horizon", "hub": "GEG", "airport_name": "Spokane International Airport ", "airline_cat": "Regional" }, "geometry": { "type": "Point", "coordinates": [ -117.538042, 47.624724 ] } },
{ "type": "Feature", "properties": { "id": 175, "airline": "Horizon", "hub": "MFR", "airport_name": "Rogue Valley International-Medford Airport", "airline_cat": "Regional" }, "geometry": { "type": "Point", "coordinates": [ -122.874361, 42.368276 ] } },
{ "type": "Feature", "properties": { "id": 176, "airline": "Horizon", "hub": "PDX", "airport_name": "Portland International Airport", "airline_cat": "Regional" }, "geometry": { "type": "Point", "coordinates": [ -122.592788, 45.588823 ] } },
{ "type": "Feature", "properties": { "id": 177, "airline": "Horizon", "hub": "SEA", "airport_name": "Seattle-Tacoma International Airport", "airline_cat": "Regional" }, "geometry": { "type": "Point", "coordinates": [ -122.301505, 47.4437 ] } },
{ "type": "Feature", "properties": { "id": 178, "airline": "Mesa", "hub": "IAD", "airport_name": "Dulles International Airport", "airline_cat": "Regional" }, "geometry": { "type": "Point", "coordinates": [ -77.447899, 38.953007 ] } },
{ "type": "Feature", "properties": { "id": 179, "airline": "Mesa", "hub": "IAH", "airport_name": "George Bush Intercontinental Airport", "airline_cat": "Regional" }, "geometry": { "type": "Point", "coordinates": [ -95.334319, 29.986637 ] } },
{ "type": "Feature", "properties": { "id": 180, "airline": "Mesa", "hub": "PHX", "airport_name": "Phoenix Sky Harbor International Airport", "airline_cat": "Regional" }, "geometry": { "type": "Point", "coordinates": [ -112.008196, 33.435926 ] } },
{ "type": "Feature", "properties": { "id": 181, "airline": "Mesa", "hub": "DFW", "airport_name": "Dallas\/Fort Worth International Airport", "airline_cat": "Regional" }, "geometry": { "type": "Point", "coordinates": [ -97.040571, 32.898971 ] } },
{ "type": "Feature", "properties": { "id": 182, "airline": "Piedmont", "hub": "MDT", "airport_name": "Harrisburg International Airport", "airline_cat": "Regional" }, "geometry": { "type": "Point", "coordinates": [ -76.755843, 40.196163 ] } },
{ "type": "Feature", "properties": { "id": 183, "airline": "Piedmont", "hub": "ROA", "airport_name": "Roanoke-Blacksburg Regional Airport", "airline_cat": "Regional" }, "geometry": { "type": "Point", "coordinates": [ -79.96999, 37.320339 ] } },
{ "type": "Feature", "properties": { "id": 184, "airline": "Piedmont", "hub": "SBY", "airport_name": "Salisbury-Ocean City Wicomico Regional Airport", "airline_cat": "Regional" }, "geometry": { "type": "Point", "coordinates": [ -75.516874, 38.342375 ] } },
{ "type": "Feature", "properties": { "id": 185, "airline": "Piedmont", "hub": "CLT", "airport_name": "Charlotte Douglas International Airport", "airline_cat": "Regional" }, "geometry": { "type": "Point", "coordinates": [ -80.943882, 35.220956 ] } },
{ "type": "Feature", "properties": { "id": 186, "airline": "Piedmont", "hub": "DCA", "airport_name": "Ronald Reagan Washington National Airport", "airline_cat": "Regional" }, "geometry": { "type": "Point", "coordinates": [ -77.043461, 38.853815 ] } },
{ "type": "Feature", "properties": { "id": 187, "airline": "Piedmont", "hub": "PHL", "airport_name": "Philadelphia International Airport", "airline_cat": "Regional" }, "geometry": { "type": "Point", "coordinates": [ -75.243206, 39.876339 ] } },
{ "type": "Feature", "properties": { "id": 188, "airline": "Republic", "hub": "CMH", "airport_name": "John Glenn Columbus International Airport", "airline_cat": "Regional" }, "geometry": { "type": "Point", "coordinates": [ -82.888919, 39.998306 ] } },
{ "type": "Feature", "properties": { "id": 189, "airline": "Republic", "hub": "DCA", "airport_name": "Ronald Reagan Washington National Airport", "airline_cat": "Regional" }, "geometry": { "type": "Point", "coordinates": [ -77.043461, 38.853815 ] } },
{ "type": "Feature", "properties": { "id": 190, "airline": "Republic", "hub": "EWR", "airport_name": "Newark Liberty International Airport", "airline_cat": "Regional" }, "geometry": { "type": "Point", "coordinates": [ -74.177456, 40.690703 ] } },
{ "type": "Feature", "properties": { "id": 191, "airline": "Republic", "hub": "IND", "airport_name": "Indianapolis International Airport", "airline_cat": "Regional" }, "geometry": { "type": "Point", "coordinates": [ -86.298395, 39.714499 ] } },
{ "type": "Feature", "properties": { "id": 192, "airline": "Republic", "hub": "LGA", "airport_name": "LaGuardia Airport", "airline_cat": "Regional" }, "geometry": { "type": "Point", "coordinates": [ -73.871992, 40.774157 ] } },
{ "type": "Feature", "properties": { "id": 193, "airline": "Republic", "hub": "MCI", "airport_name": "Kansas City International Airport ", "airline_cat": "Regional" }, "geometry": { "type": "Point", "coordinates": [ -94.719068, 39.298549 ] } },
{ "type": "Feature", "properties": { "id": 194, "airline": "Republic", "hub": "MIA", "airport_name": "Miami International Airport", "airline_cat": "Regional" }, "geometry": { "type": "Point", "coordinates": [ -80.278369, 25.795039 ] } },
{ "type": "Feature", "properties": { "id": 195, "airline": "Republic", "hub": "ORD", "airport_name": "O'Hare International Airport", "airline_cat": "Regional" }, "geometry": { "type": "Point", "coordinates": [ -87.906163, 41.97886 ] } },
{ "type": "Feature", "properties": { "id": 196, "airline": "Republic", "hub": "PHL", "airport_name": "Philadelphia International Airport", "airline_cat": "Regional" }, "geometry": { "type": "Point", "coordinates": [ -75.243206, 39.876339 ] } },
{ "type": "Feature", "properties": { "id": 197, "airline": "Republic", "hub": "PIT", "airport_name": "Pittsburgh International Airport ", "airline_cat": "Regional" }, "geometry": { "type": "Point", "coordinates": [ -80.246103, 40.495599 ] } },
{ "type": "Feature", "properties": { "id": 198, "airline": "Republic", "hub": "CLT", "airport_name": "Charlotte Douglas International Airport", "airline_cat": "Regional" }, "geometry": { "type": "Point", "coordinates": [ -80.943882, 35.220956 ] } },
{ "type": "Feature", "properties": { "id": 199, "airline": "Republic", "hub": "DEN", "airport_name": "Denver International Airport", "airline_cat": "Regional" }, "geometry": { "type": "Point", "coordinates": [ -104.673663, 39.858616 ] } },
{ "type": "Feature", "properties": { "id": 200, "airline": "Republic", "hub": "SDF", "airport_name": "Louisville International Airport", "airline_cat": "Regional" }, "geometry": { "type": "Point", "coordinates": [ -85.732973, 38.170107 ] } },
{ "type": "Feature", "properties": { "id": 201, "airline": "Skywest", "hub": "FAT", "airport_name": "Fresno Yosemite International Airport", "airline_cat": "Regional" }, "geometry": { "type": "Point", "coordinates": [ -119.720256, 36.769564 ] } },
{ "type": "Feature", "properties": { "id": 202, "airline": "Skywest", "hub": "IAH", "airport_name": "George Bush Intercontinental Airport", "airline_cat": "Regional" }, "geometry": { "type": "Point", "coordinates": [ -95.334319, 29.986637 ] } },
{ "type": "Feature", "properties": { "id": 203, "airline": "Skywest", "hub": "LAX", "airport_name": "Los Angeles International Airport", "airline_cat": "Regional" }, "geometry": { "type": "Point", "coordinates": [ -118.408294, 33.943609 ] } },
{ "type": "Feature", "properties": { "id": 204, "airline": "Skywest", "hub": "MSP", "airport_name": "Minneapolis?Saint Paul International Airport", "airline_cat": "Regional" }, "geometry": { "type": "Point", "coordinates": [ -93.207935, 44.881931 ] } },
{ "type": "Feature", "properties": { "id": 205, "airline": "Skywest", "hub": "ORD", "airport_name": "O'Hare International Airport", "airline_cat": "Regional" }, "geometry": { "type": "Point", "coordinates": [ -87.906163, 41.97886 ] } },
{ "type": "Feature", "properties": { "id": 206, "airline": "Skywest", "hub": "PDX", "airport_name": "Portland International Airport", "airline_cat": "Regional" }, "geometry": { "type": "Point", "coordinates": [ -122.592788, 45.588823 ] } },
{ "type": "Feature", "properties": { "id": 207, "airline": "Skywest", "hub": "PHX", "airport_name": "Phoenix Sky Harbor International Airport", "airline_cat": "Regional" }, "geometry": { "type": "Point", "coordinates": [ -112.008196, 33.435926 ] } },
{ "type": "Feature", "properties": { "id": 208, "airline": "Skywest", "hub": "PSP", "airport_name": "Palm Springs International Airport ", "airline_cat": "Regional" }, "geometry": { "type": "Point", "coordinates": [ -116.508432, 33.823158 ] } },
{ "type": "Feature", "properties": { "id": 209, "airline": "Skywest", "hub": "SEA", "airport_name": "Seattle-Tacoma International Airport", "airline_cat": "Regional" }, "geometry": { "type": "Point", "coordinates": [ -122.301505, 47.4437 ] } },
{ "type": "Feature", "properties": { "id": 210, "airline": "Skywest", "hub": "SFO", "airport_name": "San Fransisco International Airport", "airline_cat": "Regional" }, "geometry": { "type": "Point", "coordinates": [ -122.384362, 37.616853 ] } },
{ "type": "Feature", "properties": { "id": 211, "airline": "Skywest", "hub": "SLC", "airport_name": "Salt Lake City International Airport", "airline_cat": "Regional" }, "geometry": { "type": "Point", "coordinates": [ -111.980358, 40.785489 ] } },
{ "type": "Feature", "properties": { "id": 212, "airline": "Skywest", "hub": "TUS", "airport_name": "Tucson International Airport", "airline_cat": "Regional" }, "geometry": { "type": "Point", "coordinates": [ -110.937386, 32.120761 ] } },
{ "type": "Feature", "properties": { "id": 213, "airline": "Skywest", "hub": "COS", "airport_name": "Colorado Springs Airport", "airline_cat": "Regional" }, "geometry": { "type": "Point", "coordinates": [ -104.700856, 38.79719 ] } },
{ "type": "Feature", "properties": { "id": 214, "airline": "Skywest", "hub": "DEN", "airport_name": "Denver International Airport", "airline_cat": "Regional" }, "geometry": { "type": "Point", "coordinates": [ -104.673663, 39.858616 ] } },
{ "type": "Feature", "properties": { "id": 215, "airline": "Skywest", "hub": "DTW", "airport_name": "Detroit Metropolitan Wayne County Airport", "airline_cat": "Regional" }, "geometry": { "type": "Point", "coordinates": [ -83.356146, 42.208172 ] } },
{ "type": "Feature", "properties": { "id": 216, "airline": "Skywest", "hub": "LAX", "airport_name": "Los Angeles International Airport", "airline_cat": "Regional" }, "geometry": { "type": "Point", "coordinates": [ -118.408294, 33.943609 ] } },
{ "type": "Feature", "properties": { "id": 217, "airline": "Skywest", "hub": "CVG", "airport_name": "Cincinnati\/Northern Kentucky International Airport", "airline_cat": "Regional" }, "geometry": { "type": "Point", "coordinates": [ -84.656161, 39.055716 ] } },
{ "type": "Feature", "properties": { "id": 219, "airline": "Skywest", "hub": "ATL", "airport_name": "Hartsfield-Jackson Atlanta International Airport", "airline_cat": "Regional" }, "geometry": { "type": "Point", "coordinates": [ -84.418918, 33.640328 ] } }
]
}
